{"version": 0.6, "generator": "Overpass API 0.7.62.4 2390de5a", "osm3s": {"timestamp_osm_base": "2024-12-30T15:00:11Z", "copyright": "The data included in this document is from www.openstreetmap.org. The data is made available under ODbL."}, "elements": [{"type": "node", "id": 264222011, "lat": 40.9139798, "lon": 141.1893847, "tags": {"KSJ2:LIN": "\u5927\u6e4a\u7dda", "KSJ2:STN": "\u6709\u6238", "name": "\u6709\u6238", "name:en": "Arito", "name:ja": "\u6709\u6238", "name:ja_rm": "Arito", "name:ko": "\uc544\ub9ac\ud1a0", "note": "National-Land Numerical Information (Railway) 2007, MLIT Japan", "note:ja": "\u56fd\u571f\u6570\u5024\u60c5\u5831\uff08\u9244\u9053\u30c7\u30fc\u30bf\uff09\u5e73\u621019\u5e74\u3000\u56fd\u571f\u4ea4\u901a\u7701", "public_transport": "station", "railway": "station", "source": "KSJ2", "source_ref": "http://nlftp.mlit.go.jp/ksj/jpgis/datalist/KsjTmplt-N02-v1_1.html", "wikidata": "Q4791144", "wikipedia": "ja:\u6709\u6238\u99c5"}}, {"type": "node", "id": 264222152, "lat": 41.1916065, "lon": 141.2791747, "tags": {"KSJ2:LIN": "\u5927\u6e4a\u7dda", "KSJ2:STN": "\u8fd1\u5ddd", "name": "\u8fd1\u5ddd", "name:en": "Chikagawa", "name:ja": "\u8fd1\u5ddd", "name:ja_rm": "Chikagawa", "name:ko": "\uc9c0\uce74\uac00\uc640", "note": "National-Land Numerical Information (Railway) 2007, MLIT Japan", "note:ja": "\u56fd\u571f\u6570\u5024\u60c5\u5831\uff08\u9244\u9053\u30c7\u30fc\u30bf\uff09\u5e73\u621019\u5e74\u3000\u56fd\u571f\u4ea4\u901a\u7701", "public_transport": "station", "railway": "station", "source": "KSJ2", "source_ref": "http://nlftp.mlit.go.jp/ksj/jpgis/datalist/KsjTmplt-N02-v1_1.html", "wikidata": "Q5097352", "wikipedia": "ja:\u8fd1\u5ddd\u99c5"}}, {"type": "node", "id": 264222627, "lat": 41.0221893, "lon": 141.246589, "tags": {"KSJ2:LIN": "\u5927\u6e4a\u7dda", "KSJ2:STN": "\u5439\u8d8a", "name": "\u5439\u8d8a", "name:en": "Fukkoshi", "name:ja": "\u5439\u8d8a", "name:ja_rm": "Fukkoshi", "name:ko": "\ud6d7\ucf54\uc2dc", "note": "National-Land Numerical Information (Railway) 2007, MLIT Japan", "note:ja": "\u56fd\u571f\u6570\u5024\u60c5\u5831\uff08\u9244\u9053\u30c7\u30fc\u30bf\uff09\u5e73\u621019\u5e74\u3000\u56fd\u571f\u4ea4\u901a\u7701", "public_transport": "station", "railway": "station", "source": "KSJ2", "source_ref": "http://nlftp.mlit.go.jp/ksj/jpgis/datalist/KsjTmplt-N02-v1_1.html", "wikidata": "Q5507606", "wikipedia": "ja:\u5439\u8d8a\u99c5"}}, {"type": "node", "id": 264222828, "lat": 41.132216, "lon": 141.276828, "tags": {"KSJ2:LIN": "\u5927\u6e4a\u7dda", "KSJ2:STN": "\u6709\u7551", "name": "\u6709\u7551", "name:en": "Arihata", "name:ja": "\u6709\u7551", "name:ja_rm": "Arihata", "name:ko": "\uc544\ub9ac\ud558\ud0c0", "note": "National-Land Numerical Information (Railway) 2007, MLIT Japan", "note:ja": "\u56fd\u571f\u6570\u5024\u60c5\u5831\uff08\u9244\u9053\u30c7\u30fc\u30bf\uff09\u5e73\u621019\u5e74\u3000\u56fd\u571f\u4ea4\u901a\u7701", "public_transport": "station", "railway": "station", "source": "KSJ2", "source_ref": "http://nlftp.mlit.go.jp/ksj/jpgis/datalist/KsjTmplt-N02-v1_1.html", "wikidata": "Q4790598", "wikipedia": "ja:\u6709\u7551\u99c5"}}, {"type": "node", "id": 264222966, "lat": 41.229304, "lon": 141.248172, "tags": {"KSJ2:LIN": "\u5927\u6e4a\u7dda", "KSJ2:STN": "\u91d1\u8c37\u6ca2", "name": "\u91d1\u8c37\u6ca2", "name:en": "Kanayasawa", "name:ja": "\u91d1\u8c37\u6ca2", "name:ja_rm": "Kanayasawa", "name:ko": "\uac00\ub098\uc57c\uc0ac\uc640", "note": "National-Land Numerical Information (Railway) 2007, MLIT Japan", "note:ja": "\u56fd\u571f\u6570\u5024\u60c5\u5831\uff08\u9244\u9053\u30c7\u30fc\u30bf\uff09\u5e73\u621019\u5e74\u3000\u56fd\u571f\u4ea4\u901a\u7701", "public_transport": "station", "railway": "station", "source": "KSJ2", "source_ref": "http://nlftp.mlit.go.jp/ksj/jpgis/datalist/KsjTmplt-N02-v1_1.html", "wikidata": "Q6360862", "wikipedia": "ja:\u91d1\u8c37\u6ca2\u99c5"}}, {"type": "node", "id": 3920556726, "lat": 40.8554611, "lon": 141.1197284, "tags": {"KSJ2:LIN": "\u9752\u3044\u68ee\u9244\u9053\u7dda;\u5927\u6e4a\u7dda", "KSJ2:STN": "\u91ce\u8fba\u5730", "name": "\u91ce\u8fba\u5730", "name:en": "Noheji", "name:ja": "\u91ce\u8fba\u5730", "name:ja_rm": "Noheji", "name:ko": "\ub178\ud5e4\uc9c0", "note": "National-Land Numerical Information (Railway) 2007, MLIT Japan", "note:ja": "\u56fd\u571f\u6570\u5024\u60c5\u5831\uff08\u9244\u9053\u30c7\u30fc\u30bf\uff09\u5e73\u621019\u5e74\u3000\u56fd\u571f\u4ea4\u901a\u7701", "public_transport": "station", "railway": "station", "source": "KSJ2", "source_ref": "http://nlftp.mlit.go.jp/ksj/jpgis/datalist/KsjTmplt-N02-v1_1.html", "website": "https://aoimorirailway.com/lang_jp/station_list/noheji/", "wikidata": "Q6393634", "wikipedia": "ja:\u91ce\u8fba\u5730\u99c5"}}, {"type": "node", "id": 4032225420, "lat": 41.0863776, "lon": 141.2498185, "tags": {"name": "\u9678\u5965\u6a2a\u6d5c", "name:en": "Mutsu-Yokohama", "name:ja-Hira": "\u3080\u3064\u3088\u3053\u306f\u307e", "railway": "station", "wikidata": "Q6944033", "wikipedia": "ja:\u9678\u5965\u6a2a\u6d5c\u99c5"}}, {"type": "node", "id": 5994202571, "lat": 40.8711076, "lon": 141.1342547, "tags": {"KSJ2:LIN": "\u5927\u6e4a\u7dda", "KSJ2:STN": "\u5317\u91ce\u8fba\u5730", "name": "\u5317\u91ce\u8fba\u5730", "name:en": "Kita-Noheji", "name:ja": "\u5317\u91ce\u8fba\u5730", "name:ja_rm": "Kita-Noheji", "name:ko": "\uae30\ud0c0\ub178\ud5e4\uc9c0", "note": "National-Land Numerical Information (Railway) 2007, MLIT Japan", "note:ja": "\u56fd\u571f\u6570\u5024\u60c5\u5831\uff08\u9244\u9053\u30c7\u30fc\u30bf\uff09\u5e73\u621019\u5e74\u3000\u56fd\u571f\u4ea4\u901a\u7701", "public_transport": "station", "railway": "station", "source": "KSJ2", "source_ref": "http://nlftp.mlit.go.jp/ksj/jpgis/datalist/KsjTmplt-N02-v1_1.html", "wikidata": "Q6417582", "wikipedia": "ja:\u5317\u91ce\u8fba\u5730\u99c5"}}, {"type": "node", "id": 11237477231, "lat": 41.0223234, "lon": 141.2465515}, {"type": "node", "id": 11237477232, "lat": 41.0220735, "lon": 141.2465126}, {"type": "node", "id": 11237477233, "lat": 41.0220765, "lon": 141.2464831}, {"type": "node", "id": 11237477234, "lat": 41.0220087, "lon": 141.2464683}, {"type": "node", "id": 11237477235, "lat": 41.0220027, "lon": 141.2465059}, {"type": "node", "id": 11237477236, "lat": 41.0218408, "lon": 141.2464737}, {"type": "node", "id": 11237516737, "lat": 41.0218347, "lon": 141.2465568}, {"type": "node", "id": 11237516738, "lat": 41.0221504, "lon": 141.2466051}, {"type": "node", "id": 11237516739, "lat": 41.0223133, "lon": 141.2466306}, {"type": "way", "id": 1212934541, "nodes": [11237477231, 11237477232, 11237477233, 11237477234, 11237477235, 11237477236, 11237516737, 11237516738, 11237516739, 11237477231], "tags": {"name": "\u5439\u8d8a\u99c5", "public_transport": "station", "railway": "station", "train": "yes"}}]}