{"version": 0.6, "generator": "Overpass API 0.7.62.4 2390de5a", "osm3s": {"timestamp_osm_base": "2024-12-30T15:02:15Z", "copyright": "The data included in this document is from www.openstreetmap.org. The data is made available under ODbL."}, "elements": [{"type": "node", "id": 264431094, "lat": 43.9932762, "lon": 143.5358399, "tags": {"name": "\u5b89\u56fd", "name:en": "Yasukuni", "name:ja": "\u5b89\u56fd", "name:ko": "\uc57c\uc2a4\ucfe0\ub2c8", "railway": "station", "source": "KSJ2", "wikidata": "Q8050034", "wikipedia": "ja:\u5b89\u56fd\u99c5"}}, {"type": "node", "id": 264431676, "lat": 43.923431, "lon": 143.5348247, "tags": {"name": "\u751f\u7530\u539f", "name:en": "Ikutahara", "name:ja": "\u751f\u7530\u539f", "name:ko": "\uc774\ucfe0\ud0c0\ud558\ub77c", "railway": "station", "source": "KSJ2", "wikidata": "Q5996420", "wikipedia": "ja:\u751f\u7530\u539f\u99c5"}}, {"type": "node", "id": 264432559, "lat": 44.0087476, "lon": 143.421126, "tags": {"name": "\u702c\u6238\u702c", "name:en": "Setose", "name:ja": "\u702c\u6238\u702c", "name:ko": "\uc138\ud1a0\uc138", "railway": "station", "source": "KSJ2", "wikidata": "Q7456827", "wikipedia": "ja:\u702c\u6238\u702c\u99c5"}}, {"type": "node", "id": 264432568, "lat": 44.0596736, "lon": 143.5202157, "tags": {"name": "\u9060\u8efd", "name:en": "Engaru", "name:ja": "\u9060\u8efd", "name:ko": "\uc5d4\uac00\ub8e8", "public_transport": "station", "railway": "station", "source": "KSJ2", "wikidata": "Q5377447", "wikipedia": "ja:\u9060\u8efd\u99c5"}}, {"type": "node", "id": 264435335, "lat": 44.0065344, "lon": 143.3361927, "tags": {"name": "\u4e38\u702c\u5e03", "name:en": "Maruseppu", "name:ja": "\u4e38\u702c\u5e03", "name:ko": "\ub9c8\ub8e8\uc14b\ud478", "railway": "station", "source": "KSJ2", "wikidata": "Q6778000", "wikipedia": "ja:\u4e38\u702c\u5e03\u99c5"}}, {"type": "node", "id": 6050872545, "lat": 43.9319244, "lon": 143.3344599, "tags": {"railway": "station"}}]}